City_ID,City,Country,Lat,Lng,Max Temp,Humidity,Cloudiness,Wind Speed,Current Description
0,New Norfolk,AU,-42.7826,147.0587,278.1,87,18,1.74,few clouds
1,Igarka,RU,67.4667,86.5833,275.54,53,100,2.47,overcast clouds
2,Kaeo,NZ,-35.1,173.7833,289.19,91,95,2.08,overcast clouds
3,Lebu,CL,-37.6167,-73.65,284.63,83,99,6.77,overcast clouds
4,Macau,MO,22.2006,113.5461,299.74,94,40,0.0,light intensity shower rain
5,Jalu,LY,29.0331,21.5482,302.4,33,0,6.86,clear sky
6,Airai,TL,-8.9266,125.4092,287.35,90,59,1.29,broken clouds
7,Mar Del Plata,AR,-38.0023,-57.5575,289.79,59,0,4.63,clear sky
8,Busselton,AU,-33.65,115.3333,283.56,70,10,5.15,clear sky
9,Ushuaia,AR,-54.8,-68.3,275.96,70,40,4.63,scattered clouds
10,Nchelenge,ZM,-9.3451,28.734,293.96,52,97,2.72,overcast clouds
11,Lompoc,US,34.6391,-120.4579,300.84,72,40,12.07,scattered clouds
12,Coquimbo,CL,-29.9533,-71.3436,289.0,77,0,4.12,clear sky
13,Port Alfred,ZA,-33.5906,26.891,291.46,40,3,2.58,clear sky
14,Mataura,NZ,-46.1927,168.8643,281.19,82,100,1.91,overcast clouds
15,Pavlodar,KZ,52.3,76.95,285.04,62,0,4.0,clear sky
16,Victoria,HK,22.2855,114.1577,301.07,91,100,5.36,moderate rain
17,Castro,BR,-24.7911,-50.0119,289.14,92,100,2.33,overcast clouds
18,Rikitea,PF,-23.1203,-134.9692,295.44,69,70,8.45,broken clouds
19,Sinnamary,GF,5.3833,-52.95,298.38,89,100,3.51,overcast clouds
20,Tiksi,RU,71.6872,128.8694,277.35,92,100,1.73,overcast clouds
21,Ambon,ID,-3.6954,128.1814,297.23,94,40,0.51,scattered clouds
22,Bengkulu,ID,-3.8004,102.2655,296.77,93,93,2.01,overcast clouds
23,Evans,US,33.5337,-82.1307,306.5,41,87,1.34,overcast clouds
24,Vaini,TO,-21.2,-175.2,297.24,73,20,5.14,few clouds
25,Grindavik,IS,63.8424,-22.4338,285.12,93,75,4.63,light rain
26,Hurricane,US,37.1753,-113.2899,309.34,14,6,7.24,clear sky
27,Hermanus,ZA,-34.4187,19.2345,288.04,44,60,4.02,broken clouds
28,Mayor Pablo Lagerenza,PY,-19.9309,-60.7718,291.89,75,43,5.13,scattered clouds
29,Saskylakh,RU,71.9167,114.0833,276.32,74,11,2.3,few clouds
30,Kruisfontein,ZA,-34.0033,24.7314,287.4,48,0,1.84,clear sky
31,Jamestown,US,42.097,-79.2353,297.88,49,100,5.66,overcast clouds
32,Lorengau,PG,-2.0226,147.2712,300.51,78,78,2.54,broken clouds
33,Hithadhoo,MV,-0.6,73.0833,300.82,74,92,1.82,overcast clouds
34,Bukachacha,RU,52.9833,116.9167,285.88,64,94,1.38,overcast clouds
35,Hobart,AU,-42.8794,147.3294,278.29,81,75,5.14,light rain
36,Cidreira,BR,-30.1811,-50.2056,290.9,97,100,3.03,moderate rain
37,Peniche,PT,39.3558,-9.3811,292.75,92,50,3.62,scattered clouds
38,Ahuimanu,US,21.4447,-157.8378,302.47,66,20,4.12,few clouds
39,Luderitz,NA,-26.6481,15.1594,293.13,36,0,2.77,clear sky
40,Kapaa,US,22.0752,-159.319,299.33,77,54,2.24,broken clouds
41,Barrow,US,71.2906,-156.7887,273.03,82,15,7.55,few clouds
42,Kuching,MY,1.55,110.3333,296.27,100,20,0.0,few clouds
43,Butaritari,KI,3.0707,172.7902,300.11,79,14,5.6,light rain
44,Inhambane,MZ,-23.865,35.3833,293.86,69,97,6.05,light rain
45,Tezu,IN,27.9167,96.1667,297.65,80,100,1.24,light rain
46,Vardo,NO,70.3705,31.1107,279.14,81,0,3.09,clear sky
47,Casino,AU,-28.8667,153.05,279.26,82,31,2.02,scattered clouds
48,Cambridge,CA,43.3601,-80.3127,292.81,91,100,5.14,mist
49,Bredasdorp,ZA,-34.5322,20.0403,288.54,38,16,1.31,few clouds
50,East London,ZA,-33.0153,27.9116,292.01,41,0,2.57,clear sky
51,Nyurba,RU,63.2842,118.3319,285.63,91,2,1.57,clear sky
52,Thompson,CA,55.7435,-97.8558,291.24,25,20,4.63,few clouds
53,Intipuca,SV,13.1969,-88.0544,298.0,90,100,1.31,overcast clouds
54,San Carlos De Bariloche,AR,-41.1456,-71.3082,277.01,87,100,9.26,heavy intensity rain
55,Aasiaat,GL,68.7098,-52.8699,274.71,73,24,4.1,few clouds
56,Bireun,ID,5.203,96.7009,297.33,86,100,2.39,overcast clouds
57,Yellowknife,CA,62.456,-114.3525,295.44,28,75,6.71,broken clouds
58,Beringovskiy,RU,63.05,179.3167,276.62,91,100,2.73,overcast clouds
59,Kodiak,US,57.79,-152.4072,284.23,82,84,2.99,broken clouds
60,Alta Floresta,BR,-9.8756,-56.0861,306.05,49,40,1.54,scattered clouds
61,Wattegama,LK,6.7989,81.4808,296.9,85,93,3.24,overcast clouds
62,Pevek,RU,69.7008,170.3133,274.45,77,88,1.66,overcast clouds
63,Sembabule,UG,-0.0772,31.4567,289.14,84,14,1.61,few clouds
64,Sisimiut,GL,66.9395,-53.6735,277.27,57,68,9.98,broken clouds
65,Tiznit,MA,29.5833,-9.5,294.78,64,84,0.64,broken clouds
66,Salalah,OM,17.0151,54.0924,300.09,82,100,1.21,overcast clouds
67,Dikson,RU,73.5069,80.5464,271.8,97,100,5.88,light snow
68,Belaya Gora,RU,68.5333,146.4167,283.2,47,13,5.83,few clouds
69,Avarua,CK,-21.2078,-159.775,300.18,83,75,4.63,light rain
70,Ridgecrest,US,35.6225,-117.6709,310.2,10,1,2.68,clear sky
71,Leningradskiy,RU,69.3833,178.4167,274.25,84,100,4.32,overcast clouds
72,Albany,US,42.6001,-73.9662,299.63,42,100,2.01,overcast clouds
73,Tuktoyaktuk,CA,69.4541,-133.0374,275.15,75,75,3.6,broken clouds
74,Cabra,ES,37.4725,-4.4421,297.41,20,93,1.11,overcast clouds
75,Upernavik,GL,72.7868,-56.1549,273.33,81,6,5.42,clear sky
76,Karratha,AU,-20.7377,116.8463,292.43,52,5,6.78,clear sky
77,Darhan,MN,49.4867,105.9228,288.02,60,98,1.92,overcast clouds
78,Narsaq,GL,60.9167,-46.05,279.86,84,100,2.31,overcast clouds
79,Terrace,CA,54.5163,-128.6035,289.1,51,75,2.57,broken clouds
80,Kenora,CA,49.8167,-94.4337,293.69,34,75,5.14,broken clouds
81,Dalby,AU,-27.1833,151.2667,279.25,87,71,2.97,broken clouds
82,Yantal,RU,56.8471,105.2542,282.96,91,96,3.83,overcast clouds
83,Payo,ID,-3.7508,103.6372,294.65,97,89,0.85,overcast clouds
84,Norman Wells,CA,65.282,-126.8329,286.17,58,75,4.12,broken clouds
85,Aquiraz,BR,-3.9014,-38.3911,301.03,80,8,2.65,clear sky
86,Tabou,CI,4.423,-7.3528,297.71,88,100,3.76,moderate rain
87,Kailua,US,21.4022,-157.7394,302.63,68,20,4.12,few clouds
88,Mozarlandia,BR,-14.7447,-50.5706,300.8,32,25,1.59,scattered clouds
89,Faya,SA,18.3851,42.4509,294.21,28,9,0.96,clear sky
90,Chokurdakh,RU,70.6333,147.9167,278.39,59,19,6.5,few clouds
91,Sao Joao Da Barra,BR,-21.6403,-41.0511,297.2,72,27,6.1,scattered clouds
92,Punta Arenas,CL,-53.15,-70.9167,276.16,93,75,3.09,light rain
93,Flinders,AU,-34.5833,150.8552,283.92,66,6,2.24,clear sky
94,Bodden Town,KY,19.2833,-81.25,304.15,78,75,4.63,broken clouds
95,Bilibino,RU,68.0546,166.4372,276.98,55,79,5.38,broken clouds
96,Itoman,JP,26.1247,127.6694,296.16,96,75,3.09,light rain
97,Bud,US,39.447,-86.1758,299.12,81,100,5.52,overcast clouds
98,Talnakh,RU,69.4865,88.3972,274.38,62,86,3.6,overcast clouds
99,Laje,BR,-10.1833,-40.9667,294.71,63,53,5.72,broken clouds
100,Dargaville,NZ,-35.9333,173.8833,286.16,93,97,2.06,overcast clouds
101,Krasnoselkup,RU,65.7,82.4667,275.45,54,98,2.56,overcast clouds
102,Saint-Philippe,RE,-21.3585,55.7679,293.92,78,58,3.55,broken clouds
103,Yulara,AU,-25.2406,130.9889,281.2,62,35,4.24,scattered clouds
104,Vila Velha,BR,-20.3297,-40.2925,296.12,77,0,3.09,clear sky
105,Tasiilaq,GL,65.6145,-37.6368,275.81,63,100,1.41,overcast clouds
106,San Felipe,VE,10.3399,-68.7425,301.31,69,95,1.32,overcast clouds
107,Maputo,MZ,-25.9653,32.5892,291.61,76,0,2.06,clear sky
108,Puerto Ayora,EC,-0.7393,-90.3518,297.13,92,82,5.36,broken clouds
109,Martapura,ID,-3.4167,114.85,297.2,100,100,1.03,overcast clouds
110,Praia Da Vitoria,PT,38.7333,-27.0667,295.29,78,40,4.07,scattered clouds
111,Constitucion,CL,-35.3333,-72.4167,286.08,89,81,2.84,broken clouds
112,Sao Filipe,CV,14.8961,-24.4956,297.12,79,1,5.31,clear sky
113,Uvira,CD,-3.4067,29.1458,295.42,77,39,1.24,scattered clouds
114,Lanxi,CN,29.2195,119.477,293.38,81,100,0.55,overcast clouds
115,Qaanaaq,GL,77.484,-69.3632,272.82,90,100,0.52,light snow
116,Muli,MV,2.9167,73.5667,300.93,75,99,4.31,overcast clouds
117,Brighton,GB,50.8284,-0.1395,287.82,88,56,1.79,broken clouds
118,Bethel,US,41.3712,-73.414,301.12,38,59,0.89,broken clouds
119,Wangqing,CN,43.3218,129.7634,281.12,93,100,0.87,overcast clouds
120,Caborca,MX,30.5838,-111.101,309.26,10,0,4.55,clear sky
121,Severo-Kurilsk,RU,50.6789,156.125,280.12,84,99,1.31,overcast clouds
122,San Patricio,US,28.017,-97.5169,307.2,43,0,9.38,clear sky
123,Suez,EG,29.9737,32.5263,296.99,62,83,4.16,broken clouds
124,Odweyne,SO,9.4092,45.064,295.72,66,100,2.53,overcast clouds
125,Ayodhya,IN,26.8,82.2,305.6,27,3,3.39,clear sky
126,Soyo,AO,-6.1349,12.3689,296.68,89,99,2.76,overcast clouds
127,Uyuni,BO,-20.4597,-66.825,281.98,28,3,5.49,clear sky
128,Miracatu,BR,-24.2814,-47.4597,294.39,83,100,1.07,overcast clouds
129,Kupang,ID,-10.1667,123.5833,298.24,87,71,3.64,broken clouds
130,Kosh-Agach,RU,50.0,88.6667,278.85,46,94,1.12,overcast clouds
131,Ponta Delgada,PT,37.7333,-25.6667,292.55,94,75,8.75,broken clouds
132,Ostrovnoy,RU,68.0531,39.5131,278.24,95,99,5.58,overcast clouds
133,Ketchikan,US,55.3422,-131.6461,285.12,82,100,2.18,light rain
134,Karimnagar,IN,18.4333,79.15,302.81,47,94,8.05,overcast clouds
135,Mitzic,GA,0.7821,11.549,293.48,96,97,1.06,light rain
136,Cherskiy,RU,68.75,161.3,277.91,52,34,4.57,scattered clouds
137,Paita,PE,-5.0892,-81.1144,293.67,72,4,7.4,clear sky
138,Hanmer Springs,NZ,-42.5167,172.8167,281.59,87,100,2.95,light rain
139,Fergus Falls,US,46.283,-96.0776,295.46,37,0,2.06,clear sky
140,Hilo,US,19.7297,-155.09,305.53,80,0,3.13,clear sky
141,Farmington,US,36.7281,-108.2187,305.8,16,4,3.13,clear sky
142,Saldanha,ZA,-33.0117,17.9442,288.18,38,71,3.9,broken clouds
143,Piracuruca,BR,-3.9281,-41.7092,297.5,87,45,1.81,scattered clouds
144,Envira,BR,-7.3,-70.2167,299.7,83,99,0.48,overcast clouds
145,Boshnyakovo,RU,49.6333,142.1667,282.91,65,18,0.92,few clouds
146,Komsomolskiy,UZ,40.4272,71.7189,296.55,35,6,4.12,clear sky
147,Ahipara,NZ,-35.1667,173.1667,287.77,91,82,2.5,broken clouds
148,Kulhudhuffushi,MV,6.6221,73.07,301.14,77,94,6.8,overcast clouds
149,Windhoek,NA,-22.5594,17.0832,283.77,50,0,2.06,clear sky
150,Poum,NC,-20.2333,164.0167,297.89,72,89,4.88,overcast clouds
151,Jiuquan,CN,39.7432,98.5174,289.65,28,1,0.97,clear sky
152,Torbay,CA,47.6666,-52.7314,288.58,51,75,3.6,broken clouds
153,Medeiros Neto,BR,-17.3739,-40.2206,292.82,66,16,2.8,few clouds
154,Russell,US,32.3502,-85.1999,304.88,55,84,0.91,broken clouds
155,Hamilton,US,39.1834,-84.5333,298.2,94,75,8.23,thunderstorm
156,San Miguel De Cauri,PE,-10.1,-76.5833,284.26,68,69,2.6,broken clouds
157,Ibra,OM,22.6906,58.5334,300.51,58,10,0.84,clear sky
158,Atuona,PF,-9.8,-139.0333,298.76,74,14,6.19,few clouds
159,Ribeira Grande,PT,38.5167,-28.7,292.37,94,75,6.17,broken clouds
160,Port Elizabeth,ZA,-33.918,25.5701,283.31,76,0,2.06,clear sky
161,Thatta,PK,24.7475,67.9235,300.16,79,0,8.34,clear sky
162,Lobito,AO,-12.3481,13.5456,296.54,57,83,1.58,broken clouds
163,Tarnobrzeg,PL,50.573,21.6794,292.5,55,97,2.97,overcast clouds
164,Bluff,NZ,-46.6,168.3333,281.37,73,100,5.54,overcast clouds
165,Nikolskoye,RU,59.7035,30.7861,284.09,75,16,1.85,few clouds
166,Chapeco,BR,-27.0964,-52.6183,288.01,100,75,2.57,moderate rain
167,Kaitangata,NZ,-46.2817,169.8464,282.77,66,100,1.81,light rain
168,Vanimo,PG,-2.6741,141.3028,297.79,89,59,1.68,broken clouds
169,Chuy,UY,-33.6971,-53.4616,284.96,90,100,3.07,overcast clouds
170,Lakefield,US,43.6775,-95.1717,294.99,63,40,5.14,scattered clouds
171,Agadez,NE,19.75,10.25,305.35,20,87,8.18,overcast clouds
172,Zhuzhou,CN,27.8333,113.15,298.22,91,93,0.35,overcast clouds
173,Ulladulla,AU,-35.35,150.4667,283.65,61,6,5.95,clear sky
174,Tuatapere,NZ,-46.1333,167.6833,281.82,79,100,2.71,overcast clouds
175,Hualmay,PE,-11.0964,-77.6139,292.65,79,42,3.55,scattered clouds
176,Luena,AO,-11.7833,19.9167,284.69,53,100,2.29,overcast clouds
177,San Cristobal,VE,7.7669,-72.225,301.25,52,52,2.78,broken clouds
178,Mnogovershinnyy,RU,53.9353,139.9242,287.58,61,88,0.51,overcast clouds
179,Kensington,AU,-33.9167,151.2167,284.89,64,20,9.77,few clouds
180,Ribeira Brava,PT,32.65,-17.0667,294.82,85,92,0.95,overcast clouds
181,Buzmeyin,TM,38.0507,58.2056,298.0,31,0,2.06,clear sky
182,Lagoa,PT,39.05,-27.9833,291.39,93,65,9.53,broken clouds
183,Shingu,JP,33.7333,135.9833,291.46,89,19,2.51,few clouds
184,Itigi,TZ,-5.7,34.4833,289.15,78,32,3.09,scattered clouds
185,Boguchany,RU,58.3814,97.4531,277.42,95,100,4.93,overcast clouds
186,Tete,MZ,-16.1564,33.5867,296.2,60,40,4.63,scattered clouds
187,Mahebourg,MU,-20.4081,57.7,294.31,83,20,1.03,few clouds
188,Macusani,PE,-14.0833,-70.4333,278.51,78,80,2.39,broken clouds
189,Pisco,PE,-13.7,-76.2167,294.18,68,0,4.12,clear sky
190,Santa Helena De Goias,BR,-17.8136,-50.5969,297.53,41,14,0.86,few clouds
191,Rabo De Peixe,PT,37.8,-25.5833,291.88,94,75,8.75,broken clouds
192,San Andres,CO,12.5847,-81.7006,301.16,83,75,1.03,broken clouds
193,Koryukivka,UA,51.7688,32.2481,286.57,83,39,1.62,scattered clouds
194,Esperance,AU,-33.8667,121.9,286.51,62,100,2.27,overcast clouds
195,Marquette,US,46.5333,-87.6335,287.84,91,92,4.29,overcast clouds
196,Tommot,RU,58.9564,126.2925,290.03,69,53,0.73,broken clouds
197,Tucupita,VE,9.0622,-62.051,298.28,89,89,2.77,overcast clouds
198,Cockburn Town,TC,21.4612,-71.1419,300.39,81,48,5.48,scattered clouds
199,Sept-Iles,CA,50.2001,-66.3821,290.44,49,75,5.66,broken clouds
200,Sayyan,YE,15.1718,44.3244,290.98,40,76,0.77,broken clouds
201,Deputatskiy,RU,69.3,139.9,283.38,42,14,5.41,few clouds
202,Salo,IT,45.6086,10.531,299.2,76,80,1.21,broken clouds
203,Longyearbyen,SJ,78.2186,15.6401,280.06,65,75,6.69,broken clouds
204,Acajutla,SV,13.5928,-89.8275,299.35,86,100,3.92,overcast clouds
205,Barra Patuca,HN,15.8,-84.2833,302.84,72,99,6.09,overcast clouds
206,Taunggyi,MM,20.7833,97.0333,290.61,95,100,1.38,overcast clouds
207,Staryy Nadym,RU,65.6118,72.6842,276.67,75,37,4.12,scattered clouds
208,Tarko-Sale,RU,64.9225,77.785,277.25,59,94,2.43,overcast clouds
209,Neryungri,RU,56.6709,124.6491,288.55,63,22,1.01,few clouds
210,Provideniya,RU,64.3833,-173.3,277.21,81,0,4.0,clear sky
211,Hofn,IS,64.2539,-15.2082,279.46,78,100,3.02,overcast clouds
212,Kavaratti,IN,10.5669,72.642,301.7,77,100,7.94,overcast clouds
213,Achit,RU,56.7985,57.8994,284.94,96,100,4.3,light rain
214,Georgetown,MY,5.4112,100.3354,299.11,99,40,1.54,scattered clouds
215,Kashi,CN,39.4547,75.9797,295.71,30,40,1.0,scattered clouds
216,Viedma,AR,-40.8135,-62.9967,288.27,44,45,4.7,scattered clouds
217,Auki,SB,-8.7676,160.7034,299.28,82,8,1.82,clear sky
218,Marshall,US,34.3834,-86.3333,301.99,71,100,6.69,overcast clouds
219,Arraial Do Cabo,BR,-22.9661,-42.0278,297.07,53,0,4.63,clear sky
220,Manadhoo,MV,5.7667,73.3833,301.19,77,100,5.96,overcast clouds
221,Olafsvik,IS,64.8945,-23.7142,282.12,78,100,4.62,light rain
222,Sakakah,SA,29.9697,40.2064,306.91,15,94,4.05,overcast clouds
223,Umm Lajj,SA,25.0213,37.2685,303.03,46,0,3.36,clear sky
224,Tautira,PF,-17.7333,-149.15,299.79,73,32,8.1,light rain
225,Araioses,BR,-2.89,-41.9031,297.14,100,100,4.63,overcast clouds
226,Sri Aman,MY,1.2376,111.4621,295.18,100,82,0.0,broken clouds
227,Cabo San Lucas,MX,22.8909,-109.9124,304.6,58,48,3.98,scattered clouds
228,Comodoro Rivadavia,AR,-45.8667,-67.5,283.07,37,0,4.12,clear sky
229,Terra Santa,BR,-2.1042,-56.4869,298.18,94,77,1.16,broken clouds
230,Kalmeshwar,IN,21.2333,78.9,305.94,26,99,6.69,overcast clouds
231,Chapais,CA,49.7834,-74.8492,292.03,49,99,2.36,overcast clouds
232,Remedios,CU,22.4947,-79.5458,304.22,61,96,5.04,overcast clouds
233,Neiafu,TO,-18.65,-173.9833,298.53,78,20,2.57,few clouds
234,Isangel,VU,-19.55,169.2667,297.75,74,6,3.19,clear sky
235,Kununurra,AU,-15.7667,128.7333,299.14,65,84,2.57,broken clouds
236,Linjiang,CN,41.8069,126.9078,285.54,85,100,0.93,overcast clouds
237,Gat,IL,31.61,34.7642,296.7,100,15,1.29,few clouds
238,Buta,CD,2.7858,24.73,295.2,83,22,0.33,few clouds
239,Iralaya,HN,15.0,-83.2333,302.58,70,94,4.61,overcast clouds
240,Penzance,GB,50.1186,-5.5371,287.39,93,100,5.2,overcast clouds
241,Tocopilla,CL,-22.092,-70.1979,293.27,65,2,3.18,clear sky
242,Kyren,RU,51.6828,102.1408,279.25,97,100,1.6,overcast clouds
243,Fortuna,US,40.5982,-124.1573,290.89,78,100,6.17,overcast clouds
244,Rio Grande,BR,-32.035,-52.0986,289.21,91,100,4.52,overcast clouds
245,Torit,SS,4.4133,32.5678,296.39,67,99,1.13,light rain
246,Port Lincoln,AU,-34.7333,135.8667,286.67,65,98,8.11,overcast clouds
247,Gbadolite,CD,4.2833,21.0167,296.05,88,54,0.87,broken clouds
248,Suamico,US,44.6319,-88.0393,289.2,88,97,2.24,overcast clouds
249,Esperanca,BR,-7.0331,-35.8572,294.36,96,21,4.5,few clouds
250,Dzerzhinskoye,RU,56.8344,95.2283,277.43,89,100,4.83,overcast clouds
251,Ghanzi,BW,-21.5667,21.7833,283.9,59,0,3.33,clear sky
252,Cape Town,ZA,-33.9258,18.4232,294.33,50,44,0.89,scattered clouds
253,Walvis Bay,NA,-22.9575,14.5053,297.09,30,0,3.6,clear sky
254,Ternovskaya,RU,45.8542,40.4086,290.8,63,76,5.14,broken clouds
255,Tres Passos,BR,-27.4556,-53.9319,289.27,98,100,1.75,moderate rain
256,Srednekolymsk,RU,67.45,153.6833,277.84,55,25,6.15,scattered clouds
257,Quatre Cocos,MU,-20.2078,57.7625,294.21,80,4,5.61,clear sky
258,Aleksandrovskoye,RU,44.7142,43.0008,290.77,71,78,1.72,broken clouds
259,Tanout,NE,14.9709,8.8879,303.12,30,97,3.48,overcast clouds
260,Sorland,NO,67.667,12.6934,280.07,72,58,10.51,broken clouds
261,Lata,PT,40.1629,-8.3327,289.42,97,92,1.23,overcast clouds
262,Srivardhan,IN,18.0333,73.0167,301.08,83,98,0.2,overcast clouds
263,Pascagoula,US,30.3658,-88.5561,305.68,71,1,4.08,clear sky
264,Harper,LR,4.375,-7.7169,297.75,89,100,4.11,moderate rain
265,Port Angeles,US,48.1181,-123.4307,290.21,81,100,4.02,overcast clouds
266,Faanui,PF,-16.4833,-151.75,300.27,73,13,8.79,light rain
267,Padang,ID,-0.9492,100.3543,296.18,87,100,1.94,overcast clouds
268,Denpasar,ID,-8.65,115.2167,298.96,89,20,3.09,few clouds
269,Aswan,EG,24.0934,32.907,307.76,16,0,3.09,clear sky
270,Road Town,VG,18.4167,-64.6167,303.17,70,40,4.12,scattered clouds
271,Yokadouma,CM,3.5167,15.05,293.45,98,43,0.68,moderate rain
272,Guerrero Negro,MX,27.9769,-114.0611,294.72,67,39,9.19,scattered clouds
273,Rio Gallegos,AR,-51.6226,-69.2181,280.18,33,40,6.69,scattered clouds
274,Svetlogorsk,BY,52.6333,29.7333,287.11,81,100,1.79,overcast clouds
275,Yarada,IN,17.65,83.2667,299.33,94,75,1.03,mist
276,San Quintin,MX,30.4833,-115.95,294.07,72,4,8.42,clear sky
277,Zvolen,SK,48.5744,19.1532,293.54,88,63,1.54,broken clouds
278,Khatanga,RU,71.9667,102.5,277.06,77,48,3.12,scattered clouds
279,Alofi,NU,-19.0595,-169.9187,297.09,88,75,1.03,broken clouds
280,Chitral,PK,35.8462,71.7858,295.71,46,87,1.64,overcast clouds
281,Polyarnyy,RU,69.1989,33.4478,278.31,83,29,0.54,scattered clouds
282,Tingi,TZ,-11.3,35.0333,285.73,94,100,1.07,overcast clouds
283,Newry,GB,54.1784,-6.3374,286.54,82,100,0.08,overcast clouds
284,Caiaponia,BR,-16.9567,-51.8103,296.99,41,8,1.64,clear sky
285,Haines Junction,CA,60.7522,-137.5108,295.12,35,94,2.06,overcast clouds
286,Grand Gaube,MU,-20.0064,57.6608,294.37,79,5,1.34,clear sky
287,Lavrentiya,RU,65.5833,-171.0,278.41,66,95,0.86,overcast clouds
288,Hasaki,JP,35.7333,140.8333,289.42,90,100,10.18,overcast clouds
289,Emerald,AU,-23.5333,148.1667,286.23,100,100,3.09,overcast clouds
290,Dingle,PH,10.9995,122.6711,297.45,88,66,1.13,broken clouds
291,Yarmouth,US,41.7057,-70.2286,297.02,54,65,0.45,broken clouds
292,Goderich,CA,43.7501,-81.7165,289.21,94,100,3.09,moderate rain
293,Aklavik,CA,68.2191,-135.0107,282.38,49,33,3.37,scattered clouds
294,Clyde River,CA,70.4692,-68.5914,277.28,75,40,3.09,scattered clouds
295,Muroto,JP,33.2833,134.15,293.98,69,16,6.29,few clouds
296,Te Anau,NZ,-45.4167,167.7167,281.64,88,92,2.74,overcast clouds
297,Tibagi,BR,-24.5094,-50.4136,290.03,96,100,1.35,overcast clouds
298,Mandan,US,46.8267,-100.8896,288.71,63,20,1.54,few clouds
299,Slupca,PL,52.2873,17.8719,289.37,92,65,1.86,broken clouds
300,Wewak,PG,-3.5534,143.6268,298.76,84,86,0.93,overcast clouds
301,Carnarvon,AU,-24.8667,113.6333,294.12,55,0,2.68,clear sky
302,Krasnopavlivka,UA,49.1372,36.3272,287.25,78,2,3.49,clear sky
303,Mount Darwin,ZW,-16.7725,31.5838,283.99,77,17,1.78,few clouds
304,Edd,ER,13.9297,41.6925,303.29,67,95,1.18,overcast clouds
305,Nome,US,64.5011,-165.4064,295.43,30,16,2.51,few clouds
306,Centralina,BR,-18.5839,-49.1994,296.85,30,38,2.46,scattered clouds
307,Avera,US,33.194,-82.5271,305.68,37,68,2.81,broken clouds
308,Salinas,US,36.6777,-121.6555,302.35,65,4,4.95,clear sky
309,Iqaluit,CA,63.7506,-68.5145,283.0,61,20,8.75,few clouds
310,Tienen,BE,50.8077,4.9418,288.51,75,7,2.06,clear sky
311,Marsa Matruh,EG,31.3525,27.2453,297.26,83,0,3.6,clear sky
312,Acapulco,MX,16.8634,-99.8901,302.04,72,65,4.74,broken clouds
313,Ensley,US,30.5188,-87.2728,305.88,72,7,1.79,clear sky
314,Lasa,IT,46.6166,10.7002,291.13,92,86,0.56,overcast clouds
315,Itaituba,BR,-4.2761,-55.9836,302.24,74,40,2.57,scattered clouds
316,Adrar,MR,20.5022,-10.0711,308.78,10,98,6.83,overcast clouds
317,Balikpapan,ID,-1.2675,116.8289,296.73,92,73,1.49,light rain
318,Saint George,US,37.1041,-113.5841,310.26,15,6,3.13,clear sky
319,Damietta,EG,31.4165,31.8133,297.09,73,0,2.61,clear sky
320,Jacutinga,BR,-22.2856,-46.6122,290.99,72,73,1.02,broken clouds
321,Tres Arroyos,AR,-38.3739,-60.2798,286.06,58,64,4.68,broken clouds
322,Port Hedland,AU,-20.3167,118.5667,288.18,67,5,3.09,clear sky
323,Inuvik,CA,68.3499,-133.7218,276.57,69,100,4.12,overcast clouds
324,Caravelas,BR,-17.7125,-39.2481,293.71,78,16,2.02,few clouds
325,Vila Do Maio,CV,15.1333,-23.2167,297.59,86,1,7.3,clear sky
326,Tursunzoda,TJ,38.5144,68.2333,296.57,22,0,2.89,clear sky
327,Colesberg,ZA,-30.72,25.0972,282.96,45,0,1.2,clear sky
328,Nyrob,RU,60.733,56.7202,282.87,77,7,2.56,clear sky
329,Bow Island,CA,49.8668,-111.3684,293.25,45,100,2.06,overcast clouds
330,Tomohon,ID,1.3346,124.8392,291.67,91,100,1.04,overcast clouds
331,Saint Anthony,US,45.0205,-93.218,298.11,44,75,2.57,broken clouds
332,Geraldton,AU,-28.7667,114.6,287.38,47,0,7.72,clear sky
333,Lincoln,US,40.8,-96.667,301.96,62,20,4.12,few clouds
334,Barpeta,IN,26.3167,91.0,299.11,87,100,0.72,overcast clouds
335,Fondi,IT,41.3541,13.4313,298.42,74,3,1.91,clear sky
336,Maniitsoq,GL,65.4167,-52.9,278.71,61,18,7.19,few clouds
337,Sabha,LY,27.0377,14.4283,302.33,18,0,3.77,clear sky
338,Souillac,MU,-20.5167,57.5167,294.36,83,20,1.03,few clouds
339,Broken Hill,AU,-31.95,141.4333,279.63,86,6,4.68,clear sky
340,Maralal,KE,1.0968,36.698,287.51,78,74,1.5,broken clouds
341,Ribeirao Branco,BR,-24.2208,-48.7656,291.88,96,100,1.31,overcast clouds
342,Okhotsk,RU,59.3833,143.3,283.61,74,53,0.61,broken clouds
343,Lagos,NG,6.5833,3.75,300.33,86,40,1.92,scattered clouds
344,Plainfield,US,40.6168,-74.4173,302.14,36,28,0.45,scattered clouds
345,Ilulissat,GL,69.2167,-51.1,276.29,59,4,5.12,clear sky
346,Zonguldak,TR,41.25,31.8333,287.06,97,88,1.22,overcast clouds
347,Qui Nhon,VN,13.7667,109.2333,299.92,79,99,2.4,overcast clouds
348,Anzhero-Sudzhensk,RU,56.081,86.0285,277.21,81,90,2.55,overcast clouds
349,Tatarasti,RO,46.2167,27.2,290.04,79,67,3.26,broken clouds
350,Derzhavinsk,KZ,51.1,66.3167,293.36,36,100,3.81,overcast clouds
351,Bloemfontein,ZA,-29.1211,26.214,276.86,87,0,1.54,clear sky
352,Vao,NC,-22.6667,167.4833,295.94,74,79,3.61,broken clouds
353,La Ronge,CA,55.1001,-105.2842,291.29,32,20,4.63,few clouds
354,Kieta,PG,-6.2167,155.6333,299.71,84,95,2.05,light rain
355,Capoterra,IT,39.1763,8.9718,298.45,60,0,3.09,clear sky
356,Askiz,RU,53.1319,90.5264,276.97,88,14,0.49,few clouds
357,Milledgeville,US,33.0801,-83.2321,303.27,54,40,3.09,scattered clouds
358,Oromocto,CA,45.8351,-66.4792,290.51,72,100,3.09,overcast clouds
359,Arlit,NE,18.7369,7.3853,304.84,27,99,6.44,light rain
360,Nayoro,JP,44.3506,142.4578,280.68,85,100,2.41,overcast clouds
361,Harlingen,US,26.1906,-97.6961,307.62,56,4,9.0,clear sky
362,Mandalgovi,MN,45.7625,106.2708,282.41,65,27,7.16,scattered clouds
363,Acarau,BR,-2.8856,-40.12,299.25,81,11,3.08,few clouds
364,Jiazi,CN,22.8779,116.067,299.63,88,100,4.07,overcast clouds
365,Kruszwica,PL,52.6756,18.3313,290.24,100,28,2.04,scattered clouds
366,Chipata,ZM,-13.6333,32.65,285.77,80,43,3.99,scattered clouds
367,Easton,US,40.6884,-75.2207,301.32,35,53,1.79,broken clouds
368,Vidim,RU,56.4088,103.1106,279.8,95,100,4.62,overcast clouds
369,Sangueya,GN,10.7,-14.3667,299.65,85,100,1.31,moderate rain
370,Shache,CN,38.4167,77.2406,295.47,27,7,3.61,clear sky
371,Semenivka,UA,52.1783,32.5818,286.08,85,36,1.96,scattered clouds
372,Nouakchott,MR,18.0858,-15.9785,299.11,73,24,5.93,few clouds
373,Aginskoye,RU,51.1,114.53,285.18,57,64,1.6,broken clouds
374,Zhigansk,RU,66.7697,123.3711,287.84,77,91,2.3,light rain
375,Santa Pola,ES,38.1917,-0.5658,298.32,76,0,1.54,clear sky
376,Necochea,AR,-38.5473,-58.7368,286.57,61,5,3.3,clear sky
377,Osorno,CL,-40.5667,-73.15,284.4,93,100,7.2,moderate rain
378,Pangody,RU,65.85,74.4859,276.01,76,95,3.37,overcast clouds
379,Richards Bay,ZA,-28.783,32.0377,289.92,78,0,3.58,clear sky
380,Ipixuna,BR,-1.7625,-48.8043,297.06,98,79,1.2,broken clouds
381,Dunmore Town,BS,25.5,-76.65,298.67,84,100,10.18,overcast clouds
382,Natagaima,CO,3.6206,-75.0941,304.57,56,28,0.2,light rain
383,Okha,RU,53.5739,142.9478,283.77,70,96,1.78,overcast clouds
384,Lianzhou,CN,24.7811,112.3825,297.18,99,100,0.29,light rain
385,Bredy,RU,52.4153,60.3411,288.89,83,100,7.42,overcast clouds
386,Puerto Madryn,AR,-42.7692,-65.0385,286.27,46,75,2.25,broken clouds
387,Fairbanks,US,64.8378,-147.7164,297.05,26,11,0.45,few clouds
388,Klaksvik,FO,62.2266,-6.589,283.66,92,48,4.27,scattered clouds
389,Skjervoy,NO,70.0311,20.9714,286.15,63,100,10.39,overcast clouds
390,Radomsko,PL,51.0671,19.4448,291.77,92,42,2.33,scattered clouds
391,Namatanai,PG,-3.6667,152.4333,299.76,81,33,3.01,scattered clouds
392,Loralai,PK,30.3705,68.598,297.85,11,0,2.56,clear sky
393,Mehamn,NO,71.0357,27.8492,281.1,61,56,7.57,broken clouds
394,Zharkent,KZ,44.1628,80.0,291.98,49,80,3.09,broken clouds
395,Teya,RU,60.3778,92.6267,279.33,96,100,2.29,light rain
396,Pundaguitan,PH,6.3711,126.1689,301.21,73,30,1.47,scattered clouds
397,Imbituba,BR,-28.24,-48.6703,291.53,99,100,2.96,moderate rain
398,Manturovo,RU,58.3353,44.7619,283.9,97,100,2.51,overcast clouds
399,Devils Lake,US,48.1128,-98.8651,293.21,41,96,4.02,overcast clouds
400,Husavik,IS,66.0449,-17.3389,281.46,65,52,0.7,broken clouds
401,Cervo,ES,43.6702,-7.4101,289.24,84,88,3.75,overcast clouds
402,Sorong,ID,-0.8833,131.25,298.54,84,99,2.2,overcast clouds
403,Coihaique,CL,-45.5752,-72.0662,280.12,57,75,2.06,broken clouds
404,Kangaatsiaq,GL,68.3065,-53.4641,274.08,81,54,5.9,broken clouds
405,Ohafia,NG,5.6167,7.8333,295.65,89,67,1.48,broken clouds
406,Vestmanna,FO,62.1564,-7.1664,282.66,81,49,1.54,scattered clouds
407,Tura,IN,25.5198,90.2201,296.24,97,97,2.12,moderate rain
408,Bambous Virieux,MU,-20.3428,57.7575,294.29,83,20,1.03,few clouds
409,Teeli,RU,51.0333,90.2333,278.97,45,40,0.28,scattered clouds
410,San Jose,US,37.3394,-121.895,302.84,46,20,7.72,few clouds
411,Presidencia Roque Saenz Pena,AR,-26.7852,-60.4388,287.5,96,100,2.84,overcast clouds
412,Pozo Colorado,PY,-23.4923,-58.7972,291.38,89,99,6.65,overcast clouds
413,Kirovo-Chepetsk,RU,58.5539,50.0399,285.2,89,95,1.45,overcast clouds
414,Niagara Falls,CA,43.1001,-79.0663,300.45,52,100,4.63,overcast clouds
415,Nouadhibou,MR,20.931,-17.0347,294.14,78,78,9.26,sand
416,Noumea,NC,-22.2763,166.4572,295.93,99,34,2.44,scattered clouds
417,Nanortalik,GL,60.1432,-45.2371,277.89,80,100,1.73,overcast clouds
418,Shelburne,CA,44.0787,-80.2041,291.59,77,100,4.79,moderate rain
419,Cayenne,GF,4.9333,-52.3333,299.17,1,75,1.03,broken clouds
420,Visby,SE,57.6409,18.296,287.27,77,100,5.14,overcast clouds
421,Alice Springs,AU,-23.7,133.8833,278.9,100,79,0.0,broken clouds
422,Tambura,SS,5.6,27.4667,293.33,98,100,1.88,light rain
423,Marystown,CA,47.1666,-55.1483,283.84,71,24,4.92,few clouds
424,Mchinji,MW,-13.7984,32.8802,283.65,93,22,2.19,few clouds
425,Gold Coast,AU,-28.0,153.4333,285.93,85,100,1.03,overcast clouds
426,Rorvik,NO,64.8621,11.2373,284.14,87,75,5.66,broken clouds
427,Trojes,AL,41.756,19.962,294.42,77,3,3.29,clear sky
428,Porosozero,RU,62.7191,32.727,280.33,61,5,2.2,clear sky
429,Grants,US,35.1473,-107.8514,304.28,11,0,5.66,clear sky
430,College,US,64.8569,-147.8028,297.04,28,11,1.79,few clouds
431,Galesong,ID,-5.3166,119.3661,297.16,83,100,2.12,overcast clouds
432,Hambantota,LK,6.1241,81.1185,298.55,87,78,6.56,broken clouds
433,Vega De Alatorre,MX,20.0333,-96.6333,304.44,61,77,6.31,broken clouds
434,Port Blair,IN,11.6667,92.75,300.95,78,100,8.4,overcast clouds
435,Solwezi,ZM,-12.1688,26.3894,287.31,57,87,4.04,overcast clouds
436,Tessalit,ML,20.1986,1.0114,305.73,20,12,4.59,few clouds
437,Santos Reyes Nopala,MX,16.1092,-97.1561,302.11,59,85,3.51,overcast clouds
438,Kaihua,CN,23.3687,104.28,292.09,91,100,1.32,overcast clouds
439,Pandamatenga,BW,-18.5278,25.627,286.61,56,94,4.46,overcast clouds
440,Nabire,ID,-3.3667,135.4833,296.59,88,69,1.44,broken clouds
441,Severnyy,RU,50.677,36.5532,289.17,59,0,2.0,clear sky
442,Buenos Aires,AR,-34.6132,-58.3772,288.15,93,100,1.03,fog
443,Dogondoutchi,NE,13.6393,4.0287,305.95,25,92,6.05,overcast clouds
444,Ust-Karsk,RU,52.7011,118.8077,285.52,60,78,0.35,broken clouds
445,Veinticinco De Mayo,AR,-35.4323,-60.1727,287.58,64,1,0.95,clear sky
446,Batticaloa,LK,7.7102,81.6924,299.69,80,95,2.35,overcast clouds
447,Ternate,ID,0.8,127.4,299.46,80,84,1.4,broken clouds
448,Fayaoue,NC,-20.65,166.5333,297.39,74,71,4.86,broken clouds
449,Bitung,ID,1.4451,125.1824,296.62,83,100,2.72,overcast clouds
450,Port Hardy,CA,50.6996,-127.4199,286.25,76,100,5.14,light intensity shower rain
451,Koslan,RU,63.4564,48.8989,283.96,91,71,1.13,broken clouds
452,Cangucu,BR,-31.395,-52.6756,286.71,99,100,2.02,moderate rain
453,Muros,ES,42.7762,-9.0603,290.75,83,99,1.08,overcast clouds
454,Bridlington,GB,54.0831,-0.1919,285.87,78,100,6.89,overcast clouds
455,Villa Sandino,NI,12.0483,-84.9936,302.8,66,100,3.83,overcast clouds
456,Nuuk,GL,64.1835,-51.7216,280.86,52,4,9.39,clear sky
457,Keokuk,US,40.3973,-91.3849,301.44,73,20,2.57,few clouds
458,Inirida,CO,3.8653,-67.9239,301.13,78,69,0.44,broken clouds
459,Kaseda,JP,31.4167,130.3167,292.81,84,42,3.63,scattered clouds
460,Yamada,JP,39.4667,141.95,285.12,99,100,6.24,moderate rain
461,Margate,GB,51.3813,1.3862,287.52,85,99,0.45,overcast clouds
462,Cape Coast,GH,5.1053,-1.2466,299.08,78,83,3.54,broken clouds
463,Nova Olimpia,BR,-14.7972,-57.2881,304.64,35,76,2.27,broken clouds
464,Mackay,AU,-21.15,149.2,294.08,80,100,3.71,overcast clouds
465,Kaspiysk,RU,42.8816,47.6392,296.25,64,40,5.0,scattered clouds
466,Najran,SA,17.4924,44.1277,299.51,15,4,1.38,clear sky
467,La Baneza,ES,42.3003,-5.8977,291.04,65,60,4.19,broken clouds
468,Katsuura,JP,35.1333,140.3,291.16,92,96,6.71,overcast clouds
469,Frolovo,RU,49.7713,43.6622,284.48,82,0,5.02,clear sky
470,Chimoio,MZ,-19.1164,33.4833,287.07,100,75,4.54,drizzle
471,Flin Flon,CA,54.7682,-101.865,292.06,42,75,1.54,broken clouds
472,Kampong Cham,KH,11.9934,105.4635,298.2,88,100,1.46,overcast clouds
473,Larsnes,NO,62.2028,5.5773,287.38,86,13,4.24,few clouds
474,Sandane,NO,61.7728,6.215,288.82,54,0,4.12,clear sky
475,Miandrivazo,MG,-19.5167,45.4667,296.18,70,97,1.31,overcast clouds
476,Turinskaya Sloboda,RU,57.6232,64.3858,285.22,74,96,2.97,overcast clouds
477,Kedrovyy,RU,56.1667,91.8167,278.38,97,92,3.43,overcast clouds
478,Tefe,BR,-3.3542,-64.7114,305.21,58,20,3.09,few clouds
479,Pierre,US,44.3683,-100.351,287.66,82,100,3.6,overcast clouds
480,Diffa,NE,13.3154,12.6113,305.18,27,12,1.85,few clouds
481,Solnechnyy,RU,50.7214,136.6319,289.68,57,15,0.88,few clouds
482,Lapeer,US,43.0514,-83.3188,295.8,88,40,0.0,scattered clouds
483,Constantine,DZ,36.365,6.6147,299.82,41,40,1.54,scattered clouds
484,Ambatondrazaka,MG,-17.8333,48.4167,289.53,92,94,1.84,light rain
485,Tortoli,IT,39.9256,9.6572,296.49,52,1,1.67,clear sky
486,Sitka,US,57.0531,-135.33,286.09,76,100,0.0,overcast clouds
487,Abu Samrah,SY,35.3029,37.1841,293.82,60,0,3.85,clear sky
488,Port Hueneme,US,34.1478,-119.1951,305.1,73,32,1.79,scattered clouds
489,Tamandare,BR,-8.7597,-35.1047,296.98,88,93,5.41,overcast clouds
490,Isoka,ZM,-10.1606,32.6335,287.42,74,75,1.98,broken clouds
491,Valdivia,CL,-39.8142,-73.2459,285.2,94,100,4.66,heavy intensity rain
492,Xichang,CN,27.8964,102.2634,289.62,70,100,1.15,overcast clouds
493,Xuanhua,CN,40.6103,115.0447,287.7,49,22,1.49,few clouds
494,Dvorichna,UA,49.8496,37.6857,286.8,87,5,2.46,clear sky
495,Zhezkazgan,KZ,47.8043,67.7144,294.3,34,26,2.7,scattered clouds
496,Morondava,MG,-20.2833,44.2833,295.13,67,33,3.15,scattered clouds
497,Ancud,CL,-41.8697,-73.8203,282.76,98,100,1.71,moderate rain
498,Mazagao,BR,-0.115,-51.2894,298.84,85,9,1.6,clear sky
499,Toktogul,KG,41.8708,72.9402,288.43,68,1,0.75,clear sky
500,Forraskut,HU,46.3653,19.9097,293.74,53,15,3.27,few clouds
501,Silver City,US,32.7701,-108.2803,305.88,15,0,5.81,clear sky
502,Santa Isabel Do Rio Negro,BR,-0.4139,-65.0192,300.7,74,90,1.68,light rain
503,Porto Nacional,BR,-10.7081,-48.4172,304.15,48,11,1.2,few clouds
504,Luanda,AO,-8.8368,13.2343,297.15,88,20,1.54,few clouds
505,Banepa,NP,27.6298,85.5214,294.33,94,75,1.03,broken clouds
506,Fort Nelson,CA,58.8053,-122.7002,290.92,63,75,2.57,broken clouds
507,Peleduy,RU,59.6289,112.7406,286.04,79,65,2.09,broken clouds
508,Kargopol,RU,61.5071,38.9456,279.64,82,17,2.27,few clouds
509,Chimbote,PE,-9.0853,-78.5783,292.63,78,73,3.75,broken clouds
510,Sioux Lookout,CA,50.1001,-91.917,291.19,45,75,2.57,broken clouds
511,Carutapera,BR,-1.195,-46.02,297.41,94,41,2.35,scattered clouds
512,Itarema,BR,-2.9248,-39.9167,298.68,84,12,3.6,few clouds
513,Yar-Sale,RU,66.8333,70.8333,278.94,65,37,6.1,scattered clouds
514,Brigantine,US,39.4101,-74.3646,298.82,46,8,5.01,clear sky
515,Thinadhoo,MV,0.5333,72.9333,301.73,68,83,2.73,broken clouds
516,Guanare,VE,9.0418,-69.7421,304.16,62,79,3.09,broken clouds
517,Saint-Augustin,CA,51.226,-58.6502,284.83,49,31,5.36,scattered clouds
518,Bay Roberts,CA,47.5999,-53.2648,289.01,68,83,3.1,broken clouds
519,Pontes E Lacerda,BR,-15.2261,-59.3353,304.46,37,39,2.31,scattered clouds
520,Manuk Mangkaw,PH,4.8,119.85,301.86,70,18,2.98,few clouds
521,Ostersund,SE,63.1792,14.6357,288.4,38,0,5.14,clear sky
522,Sinazongwe,ZM,-17.2614,27.4618,291.35,56,20,4.47,few clouds
523,Masinigudi,IN,11.5667,76.6667,293.57,89,100,1.51,light rain
524,Wucheng,CN,29.6008,118.175,295.14,82,100,1.04,overcast clouds
525,Samarai,PG,-10.6167,150.6667,300.0,81,32,4.92,scattered clouds
526,Niteroi,BR,-22.8833,-43.1036,298.94,51,0,1.54,clear sky
527,Homer,US,59.6425,-151.5483,289.84,79,75,2.21,broken clouds
528,Cedar City,US,37.6775,-113.0619,300.59,26,19,3.63,few clouds
529,Quballat,TN,36.5418,9.6633,302.31,38,55,1.06,broken clouds
530,Kapan,AM,39.2075,46.4058,293.45,59,91,3.52,overcast clouds
531,Bend,US,44.0582,-121.3153,290.41,48,20,3.09,few clouds
532,Biak,ID,-0.9131,122.8766,297.58,82,94,1.53,light rain
533,Akhalgori,GE,42.126,44.4833,288.91,89,17,1.63,light rain
534,Antalaha,MG,-14.9003,50.2788,294.33,86,100,3.15,overcast clouds
535,Neepawa,CA,50.2289,-99.4664,290.28,52,18,3.85,few clouds
536,Mogadishu,SO,2.0371,45.3438,299.21,82,95,9.56,light rain
537,Sao Felix Do Xingu,BR,-6.6447,-51.995,299.17,72,57,1.37,broken clouds
538,Enshi,CN,30.3,109.4833,292.71,91,84,0.36,broken clouds
539,Quelimane,MZ,-17.8786,36.8883,292.33,97,100,1.79,moderate rain
540,Arman,RU,59.7,150.1667,284.72,73,100,2.81,light rain
541,Sao Mateus,BR,-18.7161,-39.8589,292.53,73,25,1.95,scattered clouds
542,Omsukchan,RU,62.5333,155.8,282.54,51,0,5.49,clear sky
543,Namibe,AO,-15.1961,12.1522,295.86,60,10,2.05,clear sky
544,Dawlatabad,AF,36.4141,64.9053,298.96,16,0,0.38,clear sky
545,Sukhobezvodnoye,RU,57.0491,44.8891,284.56,96,100,2.74,light rain
546,Ostend,BE,51.2234,2.9119,287.54,80,20,3.09,few clouds
547,San Luis,AR,-33.295,-66.3356,289.35,32,0,1.89,clear sky
548,Hot Springs,US,34.5037,-93.0552,303.88,68,45,3.58,scattered clouds
549,Nelson Bay,AU,-32.7167,152.15,283.2,74,0,9.08,clear sky
550,Kamenka,RU,51.3223,42.7678,284.75,92,0,3.9,clear sky
551,Nata,PA,8.3333,-80.5167,301.08,86,100,6.27,overcast clouds
552,Bayangol,RU,50.6977,103.4656,277.93,90,100,3.57,overcast clouds
553,Nanyang,CN,32.9947,112.5328,297.08,30,100,5.29,overcast clouds
554,Buala,SB,-8.145,159.5921,300.26,82,26,3.99,scattered clouds
555,Taltal,CL,-25.4,-70.4833,293.28,58,0,1.89,clear sky
556,Boa Vista,BR,2.8197,-60.6733,302.14,61,40,1.54,scattered clouds
557,Tan An,VN,10.5333,106.4167,300.16,92,100,1.86,overcast clouds
558,Cabedelo,BR,-6.9811,-34.8339,298.2,84,9,5.8,clear sky
559,Kaohsiung,TW,22.6163,120.3133,300.12,95,75,2.57,very heavy rain
560,Asau,RO,46.4333,26.4,288.86,96,30,1.9,scattered clouds
561,Kavieng,PG,-2.5744,150.7967,301.1,77,26,4.94,light rain
562,Tieli,CN,46.95,128.05,284.57,82,100,2.4,overcast clouds
563,Bonavista,CA,48.6499,-53.1147,278.53,82,70,3.64,broken clouds
564,Aktash,RU,50.3,87.7333,271.77,79,12,0.46,few clouds
565,Shimoda,JP,34.6667,138.95,289.87,86,98,5.04,overcast clouds
566,Sidrolandia,BR,-20.9319,-54.9614,298.96,39,82,2.01,broken clouds
567,Northam,GB,51.0333,-4.2167,288.52,87,69,0.58,broken clouds
568,Gunnedah,AU,-30.9833,150.25,276.97,93,4,2.59,clear sky
569,Kiama,AU,-34.6833,150.8667,284.03,65,5,10.28,clear sky
570,Aykhal,RU,66.0,111.5,279.19,88,11,1.76,few clouds
